city,lat,long,max_temp,humidity,cloudiness,wind_speed,country,date
suluq,31.6682,20.2521,74.88,69,0,8.05,LY,1627267343
haverhill,42.7762,-71.0773,71.96,90,1,3.0,US,1627267344
thompson,55.7435,-97.8558,59.16,44,40,6.91,CA,1627266879
mar del plata,-38.0023,-57.5575,47.12,60,0,5.99,AR,1627266883
hithadhoo,-0.6,73.0833,81.36,74,100,6.67,MV,1627266909
saint anthony,45.0205,-93.218,82.92,50,1,4.61,US,1627266937
dauphin,51.1494,-100.0502,66.34,68,1,6.91,CA,1627267178
albany,42.6001,-73.9662,71.58,94,0,4.07,US,1627267344
rikitea,-23.1203,-134.9692,71.62,74,23,7.49,PF,1627266863
puerto leguizamo,-0.1934,-74.7819,70.72,97,100,1.99,CO,1627267344
lorengau,-2.0226,147.2712,85.75,64,41,6.31,PG,1627267017
saldanha,-33.0117,17.9442,48.25,42,100,19.91,ZA,1627266919
laguna,38.421,-121.4238,99.14,32,1,3.0,US,1627266728
kalmunai,7.4167,81.8167,84.24,67,91,2.73,LK,1627266922
khatanga,71.9667,102.5,61.41,56,77,1.66,RU,1627266884
chuy,-33.6971,-53.4616,58.12,98,21,5.75,UY,1627266882
kuytun,54.3419,101.5036,75.58,47,14,8.59,RU,1627267345
punta arenas,-53.15,-70.9167,33.91,93,0,12.66,CL,1627266878
ushuaia,-54.8,-68.3,33.46,80,20,4.61,AR,1627266877
busselton,-33.65,115.3333,65.05,72,0,26.37,AU,1627267345
kapaa,22.0752,-159.319,87.78,79,20,1.99,US,1627266888
la primavera,5.4906,-70.4092,74.44,88,30,3.53,CO,1627267345
saint george,37.1041,-113.5841,83.35,62,1,4.0,US,1627267298
yellowknife,62.456,-114.3525,59.52,47,20,1.99,CA,1627266611
trelew,-43.249,-65.3051,40.55,49,3,11.68,AR,1627267071
nemuro,43.3236,145.575,75.63,89,0,7.74,JP,1627266965
samarkand,39.6542,66.9597,81.82,30,0,11.5,UZ,1627267346
vaini,-21.2,-175.2,80.76,83,20,9.22,TO,1627266885
luwuk,-0.9516,122.7875,82.94,74,69,6.49,ID,1627267068
yelovo,57.0538,54.9207,55.78,64,96,6.93,RU,1627267346
kota tinggi,1.7381,103.8999,87.89,60,54,6.4,MY,1627267346
sabha,27.0377,14.4283,78.49,32,3,11.61,LY,1627266948
koslan,63.4564,48.8989,50.22,82,78,4.92,RU,1627267346
bubaque,11.2833,-15.8333,79.2,82,100,9.55,GW,1627267031
new norfolk,-42.7826,147.0587,54.9,86,100,1.01,AU,1627266893
hobart,-42.8794,147.3294,55.26,67,75,1.01,AU,1627266885
caravelas,-17.7125,-39.2481,67.21,90,9,4.5,BR,1627266927
nikolskoye,59.7035,30.7861,63.81,65,71,3.69,RU,1627266897
beringovskiy,63.05,179.3167,49.75,93,99,6.13,RU,1627266961
lebu,-37.6167,-73.65,47.5,80,17,15.66,CL,1627266887
ahipara,-35.1667,173.1667,57.45,84,77,13.4,NZ,1627266913
flin flon,54.7682,-101.865,57.04,62,40,1.81,CA,1627266910
yulara,-25.2406,130.9889,69.64,21,2,8.05,AU,1627267058
cabo san lucas,22.8909,-109.9124,89.51,70,1,5.99,MX,1627266706
ostrovnoy,68.0531,39.5131,45.57,83,92,20.09,RU,1627267347
isangel,-19.55,169.2667,74.5,77,98,16.58,VU,1627266923
nome,64.5011,-165.4064,51.87,83,90,12.66,US,1627267347
kavieng,-2.5744,150.7967,83.25,69,28,3.71,PG,1627267347
marsh harbour,26.5412,-77.0636,82.31,78,93,14.58,BS,1627266932
ukrayinka,47.9167,35.35,67.86,64,0,7.0,UA,1627267348
bredasdorp,-34.5322,20.0403,53.28,54,100,5.75,ZA,1627266911
sao miguel do araguaia,-13.275,-50.1628,72.1,42,54,4.47,BR,1627267027
presidencia roque saenz pena,-26.7852,-60.4388,68.76,58,100,6.87,AR,1627266901
para de minas,-19.8603,-44.6083,60.84,59,0,4.45,BR,1627267329
poum,-20.2333,164.0167,72.95,69,20,24.27,NC,1627267061
ponta do sol,32.6667,-17.1,74.01,83,3,2.68,PT,1627266948
ribeira grande,38.5167,-28.7,69.89,85,5,16.22,PT,1627267348
port elizabeth,-33.918,25.5701,59.09,37,99,10.98,ZA,1627266898
bluff,-46.6,168.3333,49.8,84,100,2.98,NZ,1627266892
santa barbara,34.7333,-120.0343,65.23,64,1,6.91,US,1627267348
salalah,17.0151,54.0924,78.89,83,75,5.75,OM,1627266933
wagar,16.1525,36.2032,77.27,82,46,16.2,SD,1627267348
turkistan,43.0,68.0,95.09,22,0,7.4,KZ,1627267349
gryazi,52.4966,39.9359,62.33,64,8,0.83,RU,1627267349
khandbari,27.3747,87.2039,77.92,84,100,1.32,NP,1627267349
tayoltita,24.0833,-105.9333,69.94,94,100,1.95,MX,1627267349
fortuna,40.5982,-124.1573,56.86,91,90,1.01,US,1627266885
abalak,58.1286,68.5944,55.62,58,5,11.63,RU,1627267350
bansi,27.1833,82.9333,84.36,78,100,8.21,IN,1627267350
taoudenni,22.6783,-3.9836,96.46,7,0,5.77,ML,1627267350
mataura,-46.1927,168.8643,49.48,87,100,0.58,NZ,1627266879
falam,22.9167,93.6833,67.19,96,100,2.59,MM,1627267350
namatanai,-3.6667,152.4333,83.26,72,90,1.48,PG,1627267351
guanica,17.9716,-66.908,82.02,85,100,1.99,PR,1627267351
adrar,20.5022,-10.0711,87.19,24,0,11.65,MR,1627267351
fort frances,48.5999,-93.4003,73.62,38,1,4.61,CA,1627267351
codrington,-38.2667,141.9667,57.16,85,93,18.16,AU,1627266881
hermanus,-34.4187,19.2345,53.8,53,100,7.7,ZA,1627266883
airai,-8.9266,125.4092,77.4,22,87,3.71,TL,1627267352
hambantota,6.1241,81.1185,80.94,94,75,12.66,LK,1627266935
shakawe,-18.3667,21.85,43.41,65,0,6.06,BW,1627267352
barrow,71.2906,-156.7887,39.22,96,90,16.11,US,1627266848
srednekolymsk,67.45,153.6833,58.42,37,70,15.17,RU,1627266928
cidreira,-30.1811,-50.2056,67.41,69,88,5.3,BR,1627266882
severo-kurilsk,50.6789,156.125,60.04,87,70,4.5,RU,1627267352
kushiro,42.975,144.3747,76.15,69,75,9.22,JP,1627267352
tecoanapa,16.5167,-98.75,82.62,80,27,7.56,MX,1627267353
seymchan,62.8833,152.4333,48.51,93,100,12.35,RU,1627267353
srinivaspur,13.3333,78.2167,70.81,73,94,17.56,IN,1627267353
henties bay,-22.116,14.2845,73.0,33,39,25.21,NA,1627267062
kpandu,6.9954,0.2931,71.01,86,22,6.67,GH,1627267353
mount isa,-20.7333,139.5,73.17,18,78,11.5,AU,1627266895
provideniya,64.3833,-173.3,51.91,76,90,4.47,RU,1627267354
namie,37.4833,141.0,84.72,63,100,13.4,JP,1627267354
atuona,-9.8,-139.0333,78.13,71,4,23.58,PF,1627267354
mogadishu,2.0371,45.3438,76.32,76,9,18.57,SO,1627267200
mawlaik,23.6333,94.4167,78.01,98,100,0.67,MM,1627267354
mahebourg,-20.4081,57.7,70.09,64,20,9.22,MU,1627267354
leningradskiy,69.3833,178.4167,38.84,87,99,6.02,RU,1627267355
grindavik,63.8424,-22.4338,48.15,100,90,23.02,IS,1627266924
tuatapere,-46.1333,167.6833,49.82,94,100,0.85,NZ,1627267355
pinawa,50.1489,-95.8811,65.77,53,42,1.83,CA,1627267355
avarua,-21.2078,-159.775,77.05,83,75,10.36,CK,1627266917
basco,20.4487,121.9702,82.49,88,100,28.03,PH,1627267355
qandala,11.472,49.8728,85.87,51,27,22.01,SO,1627267356
kodiak,57.79,-152.4072,56.71,72,1,9.22,US,1627266900
nouadhibou,20.931,-17.0347,69.78,88,20,14.97,MR,1627267356
samarai,-10.6167,150.6667,79.84,73,96,15.88,PG,1627267356
curuca,-0.7289,-47.8481,73.71,92,13,3.58,BR,1627267356
cape town,-33.9258,18.4232,57.61,44,0,6.91,ZA,1627266826
korla,41.7597,86.1469,94.53,11,0,12.77,CN,1627266978
san isidro,-12.1167,-77.05,62.26,88,90,3.0,PE,1627267020
east london,-33.0153,27.9116,58.33,27,28,7.02,ZA,1627266878
saskylakh,71.9167,114.0833,59.36,57,93,15.23,RU,1627266927
kaitangata,-46.2817,169.8464,52.93,80,100,4.12,NZ,1627267357
port alfred,-33.5906,26.891,59.83,31,62,12.44,ZA,1627267357
upernavik,72.7868,-56.1549,43.14,72,100,3.49,GL,1627266949
tuktoyaktuk,69.4541,-133.0374,50.0,81,75,8.05,CA,1627266894
naxos,37.1056,25.3764,76.59,74,0,5.01,GR,1627267293
yakima,46.4665,-120.6678,96.73,25,1,10.36,US,1627267110
dakar,14.6937,-17.4441,79.68,81,98,6.8,SN,1627267293
san jeronimo,-11.9472,-75.2829,45.41,78,14,2.48,PE,1627267025
mecca,21.4267,39.8261,84.06,38,35,4.92,SA,1627266804
tezu,27.9167,96.1667,81.55,94,100,0.22,IN,1627267007
ancud,-41.8697,-73.8203,38.73,78,16,7.4,CL,1627266888
hofn,64.2539,-15.2082,51.12,89,22,10.71,IS,1627267067
port hedland,-20.3167,118.5667,78.85,22,86,10.36,AU,1627267358
husavik,66.0449,-17.3389,49.91,66,0,15.35,IS,1627266894
naze,28.3667,129.4833,83.32,91,100,18.12,JP,1627267021
iisalmi,63.5592,27.1907,57.22,84,70,2.57,FI,1627267358
codajas,-3.8367,-62.0569,77.41,69,99,3.22,BR,1627267358
gunnedah,-30.9833,150.25,58.62,61,4,4.0,AU,1627267358
puerto madero,14.7208,-92.4215,82.94,75,46,5.46,MX,1627267358
kayerkan,69.3497,87.7602,58.69,84,96,6.29,RU,1627266952
hobyo,5.3505,48.5268,75.43,77,76,22.79,SO,1627266898
coquimbo,-29.9533,-71.3436,53.33,82,0,10.36,CL,1627267359
yumen,40.2833,97.2,85.98,20,4,14.23,CN,1627267359
zambezi,-13.5432,23.1047,49.78,55,0,7.56,ZM,1627267359
kerrville,30.0474,-99.1403,82.62,68,1,4.61,US,1627267034
petropavlovsk-kamchatskiy,53.0452,158.6483,77.59,57,0,6.71,RU,1627267039
bethel,41.3712,-73.414,74.8,91,0,2.57,US,1627266887
carnarvon,-24.8667,113.6333,64.47,58,75,8.05,AU,1627266889
baoning,25.3378,110.026,87.66,66,20,2.24,CN,1627267360
puerto baquerizo moreno,-0.9,-89.6,71.28,79,44,13.2,EC,1627267360
jijiga,9.35,42.8,58.62,81,96,18.48,ET,1627267360
coahuayana,18.7333,-103.6833,81.88,88,32,0.81,MX,1627266964
camacha,33.0833,-16.3333,70.54,94,75,9.22,PT,1627267360
hovd,48.0056,91.6419,70.7,45,19,4.83,MN,1627267361
lavrentiya,65.5833,-171.0,44.6,98,100,5.19,RU,1627266921
labuhan,-6.8844,112.2051,83.75,57,2,5.61,ID,1627266961
fort nelson,58.8053,-122.7002,72.99,40,20,3.44,CA,1627266720
teseney,15.11,36.6575,73.06,87,99,11.36,ER,1627267361
sibolga,1.7427,98.7792,84.88,65,66,2.73,ID,1627267361
richards bay,-28.783,32.0377,54.12,86,0,7.23,ZA,1627266882
sao jose da coroa grande,-8.8978,-35.1478,73.96,86,38,10.6,BR,1627266963
arraial do cabo,-22.9661,-42.0278,69.51,77,0,25.72,BR,1627266902
mahon,39.8885,4.2658,70.36,83,0,6.91,ES,1627266898
zhigansk,66.7697,123.3711,75.92,54,14,4.38,RU,1627267086
vila velha,-20.3297,-40.2925,64.35,94,0,0.0,BR,1627266934
uricani,45.3373,23.1524,60.12,77,90,2.13,RO,1627267361
requena,39.4883,-1.1004,70.0,93,76,3.67,ES,1627267362
kollam,8.8833,76.6,78.67,89,97,11.01,IN,1627267362
san patricio,28.017,-97.5169,84.09,77,3,9.15,US,1627267362
kargat,55.1956,80.2811,70.34,82,100,11.56,RU,1627267362
middlesbrough,54.5762,-1.2348,59.56,76,30,4.21,GB,1627267105
tasiilaq,65.6145,-37.6368,41.16,82,24,3.13,GL,1627266882
walvis bay,-22.9575,14.5053,72.55,26,63,19.57,NA,1627267084
ormond beach,29.2858,-81.0559,83.01,75,90,1.01,US,1627267363
saint-philippe,-21.3585,55.7679,67.55,72,55,10.45,RE,1627266881
bengkulu,-3.8004,102.2655,83.79,58,2,2.33,ID,1627267363
todos santos,23.45,-110.2167,89.01,84,5,5.59,MX,1627267363
cabra,37.4725,-4.4421,72.9,65,0,1.99,ES,1627267363
deer lake,49.1667,-57.4316,60.66,77,1,10.36,CA,1627267364
goundam,16.4145,-3.6708,88.29,50,40,13.56,ML,1627266959
luanda,-8.8368,13.2343,68.0,94,40,3.44,AO,1627267309
shingu,33.7333,135.9833,86.99,64,0,6.15,JP,1627267364
fairview,40.8126,-73.999,80.29,81,1,3.44,US,1627266981
homer,59.6425,-151.5483,65.08,69,1,13.8,US,1627267071
butaritari,3.0707,172.7902,78.4,88,99,14.12,KI,1627266886
klaksvik,62.2266,-6.589,50.92,95,100,7.47,FO,1627267364
chokurdakh,70.6333,147.9167,55.58,41,49,9.64,RU,1627266905
komsomolskiy,40.4272,71.7189,86.72,28,0,9.22,UZ,1627267056
porbandar,21.6422,69.6093,79.93,86,100,22.95,IN,1627267364
torbay,47.6666,-52.7314,55.76,94,90,8.05,CA,1627266901
baruun-urt,46.6806,113.2792,68.11,51,100,13.24,MN,1627267048
kununurra,-15.7667,128.7333,84.18,26,62,9.22,AU,1627267365
los llanos de aridane,28.6585,-17.9182,67.75,95,90,13.8,ES,1627266942
bandarbeyla,9.4942,50.8122,78.08,69,83,23.85,SO,1627266925
qaanaaq,77.484,-69.3632,37.92,72,100,2.17,GL,1627266864
gelibolu,40.4103,26.6708,67.86,83,0,9.19,TR,1627267365
gravdal,68.1214,13.5031,53.49,90,100,3.62,NO,1627267365
olafsvik,64.8945,-23.7142,49.39,83,84,12.77,IS,1627266954
scotts valley,37.0511,-122.0147,77.13,76,100,1.01,US,1627267365
ust-kan,50.9276,84.761,66.97,67,92,2.93,RU,1627267366
utuado,18.2655,-66.7004,80.33,95,100,1.9,PR,1627267366
nambucca heads,-30.65,153.0,68.16,38,0,2.66,AU,1627267366
puerto ayora,-0.7393,-90.3518,71.55,89,5,4.0,EC,1627266878
kenai,60.5544,-151.2583,65.03,80,40,11.5,US,1627267028
santa cruz,-17.8,-63.1667,76.46,69,20,11.5,BO,1627267234
freeport,40.6576,-73.5832,80.62,90,1,1.99,US,1627267295
comodoro rivadavia,-45.8667,-67.5,42.66,52,0,11.5,AR,1627267073
quang ngai,15.1167,108.8,90.81,51,94,2.01,VN,1627267366
karratha,-20.7377,116.8463,79.18,31,70,3.58,AU,1627266949
ulaangom,49.9811,92.0667,68.52,62,100,4.09,MN,1627266915
imeni poliny osipenko,52.4201,136.4853,80.53,62,100,6.13,RU,1627266921
khandyga,62.6667,135.6,76.33,39,2,8.75,RU,1627267367
viedma,-40.8135,-62.9967,44.91,58,76,10.04,AR,1627267029
vao,-22.6667,167.4833,70.59,63,87,18.79,NC,1627267367
pacific grove,36.6177,-121.9166,74.16,87,75,5.99,US,1627266908
aripuana,-9.1667,-60.6333,75.33,54,6,0.87,BR,1627267367
lokomotivnyy,53.0118,60.5684,57.79,51,2,10.11,RU,1627267368
pangody,65.85,74.4859,53.87,65,99,10.87,RU,1627267052
beloha,-25.1667,45.05,59.04,79,1,11.5,MG,1627267055
lagoa,39.05,-27.9833,68.81,84,14,12.19,PT,1627266914
kropotkin,45.4375,40.5756,71.38,59,0,11.41,RU,1627267005
alta floresta,-9.8756,-56.0861,71.38,49,4,2.84,BR,1627267368
kamenka,51.3223,42.7678,63.03,59,8,3.09,RU,1627267008
ponazyrevo,58.3578,46.3142,56.34,69,78,4.59,RU,1627267368
jalu,29.0331,21.5482,74.86,44,0,8.08,LY,1627266905
mount gambier,-37.8333,140.7667,58.91,82,75,20.71,AU,1627266924
camocim,-2.9022,-40.8411,73.69,85,5,8.37,BR,1627267368
neijiang,29.5835,105.0622,86.16,71,0,0.58,CN,1627266823
hilo,19.7297,-155.09,75.61,94,90,8.05,US,1627266640
castro,-24.7911,-50.0119,54.77,59,15,3.51,BR,1627266878
okhotsk,59.3833,143.3,58.37,91,99,0.94,RU,1627267369
skjervoy,70.0311,20.9714,50.85,97,100,0.4,NO,1627267369
kavaratti,10.5669,72.642,81.52,79,100,20.47,IN,1627267369
tessalit,20.1986,1.0114,92.07,32,88,9.53,ML,1627267050
paka,4.6374,103.4368,84.13,84,20,3.44,MY,1627267370
honningsvag,70.9821,25.9704,45.99,73,99,9.86,NO,1627266976
sistranda,63.7256,8.834,54.9,95,34,11.27,NO,1627267370
eten,-6.9081,-79.8642,64.96,85,13,12.17,PE,1627267370
kodinsk,58.6881,99.1844,83.19,38,100,5.23,RU,1627267059
chumphon,10.3333,98.8333,80.71,84,82,7.45,TH,1627267370
hoquiam,46.9809,-123.8893,79.66,51,1,14.97,US,1627267371
nishihara,26.1842,127.7558,85.66,95,75,10.36,JP,1627266926
sao filipe,14.8961,-24.4956,73.71,76,83,4.61,CV,1627266921
georgetown,5.4112,100.3354,87.73,79,20,1.01,MY,1627266847
san jose de gracia,20.6667,-102.5833,56.62,89,90,2.24,MX,1627267371
pueblo,38.2545,-104.6091,75.78,64,90,1.01,US,1627267371
huarmey,-10.0681,-78.1522,64.87,87,1,10.11,PE,1627267371
sisimiut,66.9395,-53.6735,46.99,81,100,7.23,GL,1627267372
wau,7.7029,27.9953,69.13,99,100,4.7,SS,1627267372
kashi,39.4547,75.9797,87.01,25,0,6.71,CN,1627267372
tongzi,28.7829,105.0877,84.29,77,2,2.66,CN,1627267372
avera,33.194,-82.5271,79.75,70,54,3.47,US,1627267373
meulaboh,4.1363,96.1285,83.23,71,90,0.49,ID,1627267373
tuscaloosa,33.2098,-87.5692,80.38,85,75,10.36,US,1627267297
veraval,20.9,70.3667,79.16,90,100,20.87,IN,1627267373
nantucket,41.2835,-70.0995,73.96,91,90,16.11,US,1627267373
narok,-1.0783,35.8601,53.94,73,95,6.93,KE,1627267373
guerrero negro,27.9769,-114.0611,68.77,81,2,15.84,MX,1627267374
tumaco,1.7986,-78.8156,76.33,87,99,8.05,CO,1627267374
bambous virieux,-20.3428,57.7575,70.05,64,20,9.22,MU,1627266901
sorland,67.667,12.6934,54.16,82,100,4.54,NO,1627266890
aklavik,68.2191,-135.0107,56.23,82,100,12.46,CA,1627266888
imperia,43.9667,7.7833,71.47,88,7,6.04,IT,1627267374
tocopilla,-22.092,-70.1979,59.49,78,40,7.07,CL,1627267313
progreso,21.2833,-89.6667,82.51,83,70,10.27,MX,1627267375
klamath falls,42.2249,-121.7817,89.51,23,1,17.27,US,1627267359
palu,-0.8917,119.8707,90.63,51,20,0.96,ID,1627267375
mbuji-mayi,-6.15,23.6,68.32,42,25,6.08,CD,1627267375
chapais,49.7834,-74.8492,55.18,92,82,3.78,CA,1627266939
urumqi,43.801,87.6005,86.95,19,0,6.71,CN,1627267375
lufilufi,-13.8745,-171.5986,87.58,75,14,12.53,WS,1627266918
antofagasta,-23.65,-70.4,56.48,84,49,8.21,CL,1627266916
bafoulabe,13.8065,-10.8321,76.95,87,30,4.25,ML,1627267376
monopoli,40.9559,17.2896,84.07,53,21,10.11,IT,1627267376
vestmannaeyjar,63.4427,-20.2734,50.49,79,98,17.38,IS,1627267376
port hardy,50.6996,-127.4199,62.78,82,75,2.3,CA,1627266617
tokomaru,-40.4667,175.5,61.7,95,96,5.37,NZ,1627267376
ugoofaaru,5.6667,73.0,81.79,76,100,13.82,MV,1627266946
toamasina,-18.1667,49.3833,62.6,94,75,16.11,MG,1627267377
talnakh,69.4865,88.3972,62.62,83,99,3.42,RU,1627266881
moerai,-22.4333,-151.3333,75.27,79,100,13.09,PF,1627267377
junin,-34.5838,-60.9433,46.17,67,0,6.49,AR,1627267377
brumado,-14.2036,-41.6653,63.86,76,1,4.05,BR,1627267377
dikson,73.5069,80.5464,45.68,73,45,5.41,RU,1627266877
guiratinga,-16.3494,-53.7583,65.7,42,15,4.88,BR,1627267378
pobe,6.9801,2.6649,69.46,91,33,4.5,BJ,1627267378
champerico,14.3,-91.9167,82.35,74,91,3.8,GT,1627267069
moron,-34.6534,-58.6198,55.15,95,0,1.99,AR,1627267378
prachuap khiri khan,12.2167,99.75,86.58,56,100,9.82,TH,1627267379
usinsk,65.9939,57.5281,45.95,87,100,9.89,RU,1627267379
batavia,41.85,-88.3126,80.89,74,1,3.44,US,1627267379
makakilo city,21.3469,-158.0858,89.92,58,40,11.5,US,1627266773
penarroya-pueblonuevo,38.3,-5.2667,69.91,88,0,4.07,ES,1627267379
alofi,-19.0595,-169.9187,82.29,65,7,5.75,NU,1627267025
kwinana,-32.25,115.7667,66.81,75,100,26.91,AU,1627267380
kendari,-3.945,122.4989,82.83,60,53,4.25,ID,1627267380
deputatskiy,69.3,139.9,58.71,52,100,4.68,RU,1627267054
vallenar,-28.5708,-70.7581,52.48,59,0,2.08,CL,1627267380
phan thiet,10.9333,108.1,87.33,61,35,14.92,VN,1627266900
bilma,18.6853,12.9164,88.21,45,99,11.07,NE,1627266935
wolmirstedt,52.25,11.6333,66.25,85,81,4.18,DE,1627267380
north bend,43.4065,-124.2243,63.91,90,90,27.63,US,1627267381
abu samrah,35.3029,37.1841,77.18,59,0,4.47,SY,1627266909
katsuura,35.1333,140.3,86.18,61,72,19.75,JP,1627267381
iqaluit,63.7506,-68.5145,47.93,87,75,5.01,CA,1627267381
puerto rico,-26.796,-55.024,67.32,64,99,3.44,AR,1627267381
necochea,-38.5473,-58.7368,44.01,87,4,9.64,AR,1627266971
puchezh,56.9788,43.1676,61.41,57,79,4.52,RU,1627267382
saintes,45.6667,-0.75,64.09,87,37,5.84,FR,1627267382
lodwar,3.1191,35.5973,74.68,54,100,11.72,KE,1627267382
rokytne,51.2796,27.214,61.79,79,19,6.04,UA,1627267382
podgornoye,51.735,39.1496,55.62,82,0,0.0,RU,1627267383
norman wells,65.282,-126.8329,68.04,64,75,14.97,CA,1627266877
longyearbyen,78.2186,15.6401,44.44,81,75,6.91,SJ,1627266974
grand gaube,-20.0064,57.6608,70.2,57,0,15.41,MU,1627267383
ixtapa,20.7,-105.2,85.23,79,75,0.0,MX,1627266954
coihaique,-45.5752,-72.0662,30.15,86,0,3.44,CL,1627266941
urusha,54.05,122.9,70.72,75,63,6.58,RU,1627267383
rio grande,-32.035,-52.0986,62.55,82,23,7.2,BR,1627267383
craigieburn,-37.6,144.95,59.76,73,75,18.41,AU,1627267384
broome,42.2506,-75.833,71.02,80,0,2.06,US,1627267384
arman,59.7,150.1667,54.61,99,100,7.43,RU,1627267384
lipin bor,60.2622,37.9763,60.26,75,100,9.26,RU,1627267384
sakaiminato,35.55,133.2333,87.78,55,20,8.05,JP,1627267186
victoria,22.2855,114.1577,90.97,81,59,1.99,HK,1627266654
panaba,21.2833,-88.2667,76.46,91,79,2.44,MX,1627267385
port said,31.2565,32.2841,76.98,83,20,9.22,EG,1627267385
harper,4.375,-7.7169,75.63,77,58,7.38,LR,1627267057
la palma,33.8464,-118.0467,83.03,73,1,5.01,US,1627267055
vardo,70.3705,31.1107,44.8,75,63,21.99,NO,1627266977
giresun,40.5,38.5,47.52,91,56,3.15,TR,1627267385
keningau,5.3378,116.1602,84.65,54,47,2.93,MY,1627267386
plettenberg bay,-34.0527,23.3716,62.56,38,77,11.63,ZA,1627267386
esperance,-33.8667,121.9,58.84,67,2,22.73,AU,1627266907
omboue,-1.5746,9.2618,73.0,83,96,1.01,GA,1627267023
xichang,27.8964,102.2634,76.62,69,26,2.28,CN,1627266906
dangriga,16.9692,-88.2321,82.98,75,6,4.07,BZ,1627267386
bonthe,7.5264,-12.505,75.56,87,99,4.92,SL,1627266885
port lincoln,-34.7333,135.8667,60.49,66,55,20.54,AU,1627266929
verkhnevilyuysk,63.4453,120.3167,85.46,39,1,8.16,RU,1627267044
tamandare,-8.7597,-35.1047,73.63,88,40,9.57,BR,1627267387
el alto,-4.2714,-81.2147,64.26,88,87,12.64,PE,1627267387
ashford,51.1459,0.8728,64.09,97,72,6.71,GB,1627267387
luderitz,-26.6481,15.1594,65.08,29,74,11.77,NA,1627266906
pisco,-13.7,-76.2167,62.65,77,1,6.91,PE,1627266879
san quintin,30.4833,-115.95,67.24,86,100,8.16,MX,1627266947
buraydah,26.326,43.975,88.25,20,20,5.39,SA,1627267330
savignano sul rubicone,44.0953,12.4086,83.98,51,0,2.3,IT,1627267387
bud,39.447,-86.1758,78.91,89,65,4.38,US,1627267000
zelenoborskiy,66.845,32.3622,49.87,80,84,7.85,RU,1627267388
bereda,43.2686,-7.5406,60.01,99,33,1.54,ES,1627267029
palmer,42.1584,-72.3287,73.02,84,75,1.01,US,1627267011
abonnema,4.7084,6.7931,72.37,83,71,4.52,NG,1627267388
parana,-31.732,-60.5238,53.56,88,0,6.62,AR,1627267388
cherskiy,68.75,161.3,55.26,45,0,15.88,RU,1627266877
gualeguay,-33.1416,-59.3097,54.14,88,58,8.48,AR,1627267388
yatsuo,36.5667,137.1333,89.53,56,40,9.22,JP,1627267389
locri,38.2414,16.2623,81.32,52,2,1.14,IT,1627267389
sharan,54.8167,54.0,57.65,52,5,3.29,RU,1627267389
biltine,14.5333,20.9167,75.78,73,100,10.47,TD,1627267065
melission,40.7742,22.3442,76.39,68,1,2.35,GR,1627267389
vilyuysk,63.7553,121.6247,86.85,37,0,8.79,RU,1627267389
mastic beach,40.7668,-72.8521,75.97,91,1,1.01,US,1627267390
arlit,18.7369,7.3853,93.81,20,100,8.81,NE,1627267390
clyde river,70.4692,-68.5914,34.03,100,90,4.61,CA,1627266887
san policarpo,12.1791,125.5072,90.64,55,100,11.83,PH,1627266925
urucara,-2.5364,-57.76,75.24,65,30,3.2,BR,1627267077
saint-augustin,51.226,-58.6502,58.03,70,52,6.91,CA,1627266914
creel,27.75,-107.6333,55.35,90,100,1.63,MX,1627267390
boca do acre,-8.7522,-67.3978,79.48,56,87,2.42,BR,1627267390
ransang,8.9603,117.5828,88.27,65,97,13.65,PH,1627267391
januaria,-15.4833,-44.3667,62.85,47,7,3.96,BR,1627267391
san ramon,37.7799,-121.978,84.27,54,1,13.8,US,1627267164
abnub,27.2696,31.1511,77.22,57,0,7.67,EG,1627267391
lompoc,34.6391,-120.4579,70.7,81,90,10.36,US,1627266938
kruisfontein,-34.0033,24.7314,56.88,34,100,12.01,ZA,1627266903
guaxupe,-21.3053,-46.7128,54.39,57,0,5.28,BR,1627267391
oktyabrskiy,54.4815,53.471,58.91,48,2,2.44,RU,1627267017
strezhevoy,60.7333,77.5889,57.18,97,100,8.19,RU,1627267392
mitchell,43.7094,-98.0298,80.58,55,1,1.99,US,1627267392
topeka,39.0483,-95.678,79.23,85,1,4.61,US,1627267261
westport,41.1415,-73.3579,77.25,93,90,5.75,US,1627266956
jacareacanga,-6.2222,-57.7528,74.46,53,12,1.52,BR,1627267392
narasannapeta,18.4167,84.05,88.5,60,97,7.49,IN,1627267392
gat,31.61,34.7642,79.48,84,27,3.49,IL,1627267262
dandong,40.1292,124.3947,86.65,64,100,6.17,CN,1627267393
ilhabela,-23.7781,-45.3581,66.63,52,0,3.56,BR,1627267393
hami,42.8,93.45,92.46,14,4,4.99,CN,1627266975
margate,51.3813,1.3862,64.31,93,93,3.0,GB,1627266928
dayong,25.0209,118.2898,92.88,51,79,7.02,CN,1627267393
barcelos,41.5388,-8.6151,64.92,93,3,3.02,PT,1627267393
narsaq,60.9167,-46.05,46.62,62,100,1.79,GL,1627267394
storslett,69.7678,21.0247,54.18,99,100,3.22,NO,1627267394
marsaxlokk,35.8419,14.5431,79.09,88,0,6.91,MT,1627267394
am timan,11.0297,20.2827,71.17,89,100,5.44,TD,1627267394
the valley,18.217,-63.0578,82.26,83,74,19.69,AI,1627267014
marawi,7.9986,124.2928,83.64,51,69,5.3,PH,1627266912
lakhnau,26.85,80.9167,84.18,89,75,6.91,IN,1627267226
inirida,3.8653,-67.9239,72.5,98,100,2.1,CO,1627267395
sitka,57.0531,-135.33,53.73,91,100,1.23,US,1627266893
inta,66.0317,60.1659,45.59,89,98,6.98,RU,1627267395
jamestown,42.097,-79.2353,71.24,82,1,1.99,US,1627266883
sinjar,36.3209,41.8754,88.83,23,0,8.1,IQ,1627267395
at-bashi,41.1702,75.8106,73.74,23,0,1.07,KG,1627267395
iranshahr,27.2025,60.6848,86.34,48,11,0.0,IR,1627267396
serenje,-13.2325,30.2352,45.12,81,1,10.65,ZM,1627267396
jiaocheng,24.6774,116.1389,94.24,48,72,3.27,CN,1627267396
yar-sale,66.8333,70.8333,54.05,63,74,5.86,RU,1627267049
koygorodok,60.445,50.9968,52.16,85,100,5.68,RU,1627267396
jieshi,22.8134,115.8257,89.94,72,80,9.66,CN,1627267397
butembo,0.15,29.2833,58.37,85,92,3.33,CD,1627267397
yanam,16.7333,82.2167,82.8,69,100,10.4,IN,1627267397
pinheiro machado,-31.5783,-53.3811,61.05,86,72,4.99,BR,1627267397
canutama,-6.5339,-64.3831,76.86,52,63,2.55,BR,1627267397
copiapo,-27.3667,-70.3333,51.49,72,0,1.25,CL,1627267398
half moon bay,37.4636,-122.4286,79.75,76,20,1.01,US,1627267368
mattru,7.6244,-11.8332,72.46,95,98,1.45,SL,1627267398
carnduff,49.1667,-101.8009,69.39,36,2,9.55,CA,1627267398
mazyr,52.0495,29.2456,61.92,81,70,5.12,BY,1627267398
colares,38.7992,-9.4469,69.44,80,43,10.0,PT,1627267399
bambanglipuro,-7.95,110.2833,82.36,58,19,2.91,ID,1627267399
karpathos,35.507,27.2132,75.58,85,1,14.32,GR,1627267018
katangli,51.7102,143.2326,85.06,56,94,11.36,RU,1627266943
batalha,-9.6778,-37.1247,67.1,98,54,2.37,BR,1627267399
buala,-8.145,159.5921,83.8,74,25,7.65,SB,1627267031
mount pleasant,32.7941,-79.8626,82.0,86,20,4.0,US,1627267106
bodden town,19.2833,-81.25,84.2,82,20,2.3,KY,1627266966
cartagena del chaira,1.3349,-74.8429,70.65,97,100,0.38,CO,1627267399
byron bay,-28.65,153.6167,70.05,34,45,3.62,AU,1627266980
hasaki,35.7333,140.8333,82.8,66,99,20.47,JP,1627267400
kalasin,16.5,103.5,85.05,99,100,15.48,TH,1627267400
mananjary,-21.2167,48.3333,63.36,78,100,7.92,MG,1627267400
mega,4.05,38.3,50.63,74,69,13.69,ET,1627267400
arica,-18.475,-70.3042,61.03,77,90,3.44,CL,1627267172
akdepe,42.0551,59.3788,82.49,35,0,14.45,TM,1627267401
fuerte olimpo,-21.0415,-57.8738,76.06,38,1,5.75,PY,1627267401
farmington,36.7281,-108.2187,81.28,40,1,8.05,US,1627267129
corpus christi,27.8006,-97.3964,84.24,83,20,4.0,US,1627267401
uglegorsk,49.0833,142.0333,75.7,74,95,13.67,RU,1627267402
kasempa,-13.4584,25.8338,48.52,66,17,9.15,ZM,1627267402
otradnoye,59.7775,30.8181,63.97,65,63,3.53,RU,1627267402
buluang,13.3068,123.3425,85.28,79,100,14.9,PH,1627267402
vung tau,10.346,107.0843,84.83,72,44,15.28,VN,1627267402
betafo,-19.8333,46.85,49.87,90,99,6.24,MG,1627267403
susuman,62.7833,148.1667,51.96,84,100,5.7,RU,1627267403
faanui,-16.4833,-151.75,78.08,68,38,7.87,PF,1627266919
somanda,-3.3667,33.95,59.72,60,45,9.53,TZ,1627267403
baykit,61.67,96.37,84.0,40,62,6.29,RU,1627266735
cockburn town,21.4612,-71.1419,82.38,83,85,17.43,TC,1627267244
tombouctou,20.0,-3.0,92.39,29,73,10.54,ML,1627267050
grand-santi,4.25,-54.3833,72.28,99,100,2.42,GF,1627267403
cartagena,10.3997,-75.5144,82.02,78,75,3.44,CO,1627267213
kyshtovka,56.555,76.6271,57.36,96,100,12.75,RU,1627267404
talaja,21.35,72.05,79.56,84,100,10.74,IN,1627267404
dwarka,22.2394,68.9678,81.36,85,100,24.52,IN,1627266908
taunggyi,20.7833,97.0333,64.26,96,100,3.71,MM,1627267404
sao joao da barra,-21.6403,-41.0511,69.24,76,0,14.81,BR,1627266896
soe,-9.8607,124.284,83.48,28,47,7.25,ID,1627267405
bajil,15.0584,43.2851,80.91,76,100,3.8,YE,1627267405
lisakovsk,52.5369,62.4936,62.19,60,0,7.0,KZ,1627267405
mandalgovi,45.7625,106.2708,65.66,59,100,9.37,MN,1627267405
yenagoa,4.9247,6.2642,71.19,87,81,4.16,NG,1627267066
angoche,-16.2325,39.9086,71.29,60,90,15.01,MZ,1627267405
vanavara,60.34,102.2797,81.48,36,71,6.11,RU,1627266962
dnipryany,46.7463,33.2729,66.25,62,2,7.09,UA,1627267406
san cristobal,7.7669,-72.225,69.98,99,98,2.46,VE,1627266916
haines junction,60.7522,-137.5108,62.55,48,100,11.5,CA,1627266955
puyang,29.4603,119.8861,76.41,96,100,15.79,CN,1627267406
namibe,-15.1961,12.1522,69.22,59,0,8.08,AO,1627266892
terrace,54.5163,-128.6035,64.31,72,75,11.5,CA,1627267406
castelnaudary,43.3183,1.9545,67.96,80,95,1.99,FR,1627267406
mao,39.8885,4.2658,72.16,78,0,9.22,ES,1627267407
erdenet,49.0333,104.0833,65.95,59,86,5.57,MN,1627267407
bandung,-6.9039,107.6186,77.11,57,3,1.99,ID,1627267114
fairlie,55.756,-4.8556,58.39,80,100,0.85,GB,1627267407
lata,40.1629,-8.3327,67.05,95,95,2.84,PT,1627267043
touros,-5.1989,-35.4608,74.3,90,3,9.48,BR,1627267001
sinnamary,5.3833,-52.95,77.2,87,100,6.08,GF,1627266899
jodiya,22.6925,70.306,80.51,89,100,22.32,IN,1627267408
sandpoint,48.2766,-116.5533,92.16,18,1,5.75,US,1627267408
eyl,7.9803,49.8164,78.75,61,95,23.26,SO,1627266933
belyy yar,53.6039,91.3903,71.49,78,0,6.71,RU,1627267076
kahului,20.8947,-156.47,84.97,80,40,26.46,US,1627266823
vokhtoga,58.8147,41.0461,59.83,69,90,5.91,RU,1627267408
tiksi,71.6872,128.8694,57.07,75,83,12.1,RU,1627267408
nikolsk,53.7189,46.0712,59.72,64,56,2.24,RU,1627267408
tabou,4.423,-7.3528,76.17,75,51,7.76,CI,1627267409
evensk,61.95,159.2333,49.57,99,100,8.59,RU,1627267009
jining,35.405,116.5814,88.72,57,87,8.5,CN,1627267409
miram shah,33.0086,70.0697,91.4,39,1,2.53,PK,1627267409
wajima,37.4,136.9,86.68,65,40,2.3,JP,1627267409
la asuncion,11.0333,-63.8628,78.24,84,93,9.73,VE,1627267410
villarrica,-25.75,-56.4333,73.02,48,100,4.21,PY,1627267410
nang rong,14.6377,102.7914,82.81,74,100,17.49,TH,1627267410
roswell,34.0232,-84.3616,79.72,88,75,3.44,US,1627267239
chokwe,-24.5333,32.9833,54.14,91,4,5.01,MZ,1627267004
englewood,39.6478,-104.9878,76.05,60,75,14.97,US,1627267182
galveston,29.3669,-94.9669,88.18,83,1,1.01,US,1627267153
loa janan,-0.583,117.095,88.43,54,4,4.18,ID,1627267410
tiruttani,13.177,79.6128,84.99,54,100,14.54,IN,1627267411
dingle,10.9995,122.6711,87.71,65,97,16.42,PH,1627267010
baiyin,36.5583,104.2081,65.28,51,100,18.07,CN,1627267411
jumla,29.2747,82.1838,67.24,92,100,2.91,NP,1627266900
rodrigues alves,-7.738,-72.6509,73.72,74,13,1.97,BR,1627267411
ilulissat,69.2167,-51.1,50.02,43,100,11.5,GL,1627266943
petatlan,17.5167,-101.2667,78.71,92,77,3.22,MX,1627267411
dhidhdhoo,6.8833,73.1,82.38,76,91,16.8,MV,1627267412
kizukuri,40.8061,140.3861,86.85,57,0,10.8,JP,1627267412
falmouth,50.1544,-5.0711,59.9,100,20,4.61,GB,1627267412
natal,-5.795,-35.2094,74.05,94,40,8.05,BR,1627266933
jiuquan,39.7432,98.5174,86.83,20,10,12.46,CN,1627267412
saint-pierre,-21.3393,55.4781,67.64,67,0,8.05,RE,1627266928
beyneu,45.3167,55.2,84.42,23,23,13.69,KZ,1627267276
jiexiu,37.0244,111.9125,81.09,62,100,4.45,CN,1627266960
puerto madryn,-42.7692,-65.0385,43.07,49,1,15.5,AR,1627266842
hay river,60.8156,-115.7999,60.78,55,20,5.75,CA,1627267004
cairns,-16.9167,145.7667,84.07,55,40,13.8,AU,1627267389
vostok,46.4856,135.8833,92.03,41,77,4.59,RU,1627267069
berdigestyakh,62.0989,126.6992,79.9,39,0,7.61,RU,1627267413
novikovo,51.1537,37.8879,62.1,65,0,3.22,RU,1627267413
solano,38.2333,-121.9511,91.44,42,20,20.71,US,1627267413
contai,21.7786,87.7536,88.09,66,100,7.27,IN,1627267413
esil,51.9556,66.4042,63.27,53,20,12.73,KZ,1627267075
kiruna,67.8557,20.2251,43.72,100,5,6.91,SE,1627266922
chake chake,-5.2459,39.7666,74.34,66,29,14.92,TZ,1627267414
ajaccio,42.0,8.9167,73.38,65,0,6.91,FR,1627267414
khryashchevka,53.8119,49.0916,60.78,49,91,4.27,RU,1627267414
santa isabel,-23.3156,-46.2214,66.65,51,0,2.51,BR,1627267414
ossora,59.2353,163.0719,62.96,84,92,8.23,RU,1627267415
port hawkesbury,45.6169,-61.3485,65.7,72,1,8.05,CA,1627267415
acapulco,16.8634,-99.8901,84.02,79,75,10.36,MX,1627266911
las palmas,28.4204,-14.0131,70.59,68,25,14.97,ES,1627267415
enshi,30.3,109.4833,86.92,63,0,1.43,CN,1627267415
lugoba,-6.45,38.3333,60.62,56,9,3.87,TZ,1627267416
gold coast,-28.0,153.4333,71.35,40,47,1.01,AU,1627267416
pevek,69.7008,170.3133,36.07,88,74,10.96,RU,1627266890
port-gentil,-0.7193,8.7815,75.47,81,100,7.81,GA,1627267028
oranjemund,-28.55,16.4333,64.06,30,100,12.82,NA,1627267074
sydney,-33.8679,151.2073,68.34,51,40,1.01,AU,1627266957
can tho,10.0333,105.7833,82.38,83,40,6.91,VN,1627267416
nanortalik,60.1432,-45.2371,44.37,75,94,10.18,GL,1627267416
trincomalee,8.5711,81.2335,83.03,72,100,22.73,LK,1627267417
creston,41.0586,-94.3614,72.68,100,1,0.0,US,1627267380
taganak,6.0833,118.3,87.94,72,55,2.68,PH,1627267417
payo,-3.7508,103.6372,84.18,47,3,4.14,ID,1627267417
wamba,8.9333,8.6,70.54,96,99,1.86,NG,1627267417
smithers,54.7804,-127.1743,61.12,72,40,5.75,CA,1627267418
adelaide,-34.9333,138.6,63.41,65,75,3.0,AU,1627267418
kungurtug,50.5994,97.5228,71.76,51,80,2.53,RU,1627267418
constitucion,-35.3333,-72.4167,50.85,93,100,10.29,CL,1627266945
gizo,-8.103,156.8419,83.48,71,7,2.98,SB,1627267418
senica,48.6792,17.367,67.51,95,60,3.53,SK,1627267419
tarauaca,-8.1614,-70.7656,78.1,71,96,2.08,BR,1627267419
sioux lookout,50.1001,-91.917,70.18,63,75,3.44,CA,1627266938
hervey bay,-25.2986,152.8535,68.11,38,18,6.89,AU,1627266966
talcahuano,-36.7167,-73.1167,47.88,93,40,11.5,CL,1627267215
kloulklubed,7.0419,134.2556,81.1,78,100,18.01,PW,1627267419
bermejo,-32.8833,-68.8,48.11,53,0,4.61,AR,1627267419
chihuahua,28.5,-106.0,76.03,45,97,6.64,MX,1627267420
san andres,12.5847,-81.7006,82.42,83,75,11.5,CO,1627267054
baoding,38.8511,115.4903,86.67,64,83,4.79,CN,1627267420
opuwo,-18.0607,13.84,55.54,48,0,8.81,NA,1627267420
kolding,55.4904,9.4722,66.47,94,72,8.05,DK,1627267420
oiba,6.2639,-73.2988,60.69,99,100,2.26,CO,1627267421
vila,42.0304,-8.1588,54.73,91,1,3.67,PT,1627267027
bosaso,11.2842,49.1816,86.18,43,90,23.02,SO,1627267211
road town,18.4167,-64.6167,79.2,82,93,18.54,VG,1627266804
grimshaw,56.1834,-117.6027,71.22,35,20,11.5,CA,1627267421
ibra,22.6906,58.5334,86.59,51,91,6.82,OM,1627267421
williams lake,52.1415,-122.1445,65.77,58,75,3.44,CA,1627267335
falakata,26.5208,89.2055,85.41,79,100,5.12,IN,1627267421
dunedin,-45.8742,170.5036,51.8,71,100,17.0,NZ,1627266749
bairiki,1.3292,172.9752,87.8,70,40,11.5,KI,1627267081
san clemente,33.427,-117.612,79.56,83,57,1.01,US,1627267422
takoradi,4.8845,-1.7554,73.9,81,93,9.1,GH,1627266796
malakal,9.5334,31.6605,67.73,96,100,5.88,SS,1627267422
shinpokh,34.3292,71.1782,87.21,52,2,4.85,PK,1627267422
sandwick,60.0,-1.25,55.22,100,75,12.66,GB,1627267422
rawson,-43.3002,-65.1023,42.06,51,2,13.02,AR,1627266895
kalianget,-7.05,113.9333,83.57,62,2,11.95,ID,1627267423
nanfeng,23.7434,111.7959,93.31,57,53,1.95,CN,1627267423
severo-yeniseyskiy,60.3725,93.0408,79.54,38,46,8.99,RU,1627267423
sangar,63.9242,127.4739,80.74,38,6,11.88,RU,1627266930
alvaro obregon,19.3733,-99.225,61.97,63,75,3.0,MX,1627267213
yashkul,46.1711,45.3435,80.19,38,21,5.37,RU,1627267423
saint-francois,46.4154,3.9054,65.17,89,0,3.44,FR,1627267039
pitimbu,-7.4706,-34.8086,72.19,83,54,13.67,BR,1627267424
mayo,38.8876,-76.5119,84.2,84,1,4.61,US,1627266614
anori,-3.7728,-61.6442,75.69,72,95,3.04,BR,1627267424
mingyue,43.1069,128.9217,90.14,50,37,3.22,CN,1627267424
khilok,51.3674,110.4676,66.94,57,91,5.88,RU,1627267424
dalbandin,28.8947,64.4101,97.18,10,2,3.85,PK,1627267082
moranbah,-22.0016,148.0466,72.59,22,9,11.39,AU,1627267425
