city,lat,long,max_temp,humidity,cloudiness,wind_speed,country,date
inuvik,68.3499,-133.7218,54.36,90,90,8.05,CA,1627382361
yellowknife,62.456,-114.3525,52.32,82,90,3.0,CA,1627382362
punta arenas,-53.15,-70.9167,41.11,87,75,9.22,CL,1627382362
kapaa,22.0752,-159.319,79.12,82,75,1.01,US,1627382362
busselton,-33.65,115.3333,50.09,54,91,15.64,AU,1627382362
petropavlovsk-kamchatskiy,53.0452,158.6483,66.79,73,40,13.42,RU,1627382363
alenquer,-1.9417,-54.7383,73.74,65,5,4.14,BR,1627382119
mayor pablo lagerenza,-19.9309,-60.7718,63.64,48,100,12.19,PY,1627382363
east london,-33.0153,27.9116,83.34,15,0,17.27,ZA,1627382363
chuy,-33.6971,-53.4616,41.86,80,66,11.99,UY,1627382364
albany,42.6001,-73.9662,66.15,90,1,2.08,US,1627382364
poum,-20.2333,164.0167,72.14,62,72,9.64,NC,1627382364
cidreira,-30.1811,-50.2056,54.18,87,100,18.05,BR,1627382364
alta,69.9689,23.2717,63.66,74,0,7.0,NO,1627382364
iqaluit,63.7506,-68.5145,47.93,81,75,8.99,CA,1627382365
saint anthony,45.0205,-93.218,78.82,64,75,8.05,US,1627382365
puerto ayora,-0.7393,-90.3518,71.01,73,84,9.8,EC,1627382365
tahta,26.7693,31.5021,97.12,16,2,16.8,EG,1627382365
marzuq,14.4,46.4667,90.01,35,97,8.63,YE,1627382206
norman wells,65.282,-126.8329,46.44,93,40,4.61,CA,1627382366
sorland,67.667,12.6934,69.87,88,3,12.17,NO,1627382366
hilo,19.7297,-155.09,73.26,94,90,4.61,US,1627382287
maldonado,-34.6667,-54.9167,45.23,59,61,18.3,UY,1627382067
hargeysa,9.56,44.065,78.84,40,69,26.11,SO,1627382366
rikitea,-23.1203,-134.9692,74.64,75,100,18.23,PF,1627382366
tulle,45.3333,1.8333,67.19,65,93,7.11,FR,1627382367
alyangula,-13.8483,136.4192,75.07,88,40,5.75,AU,1627382367
khatanga,71.9667,102.5,86.61,42,59,10.92,RU,1627382367
bealanana,-14.55,48.7333,68.58,57,69,8.28,MG,1627382367
vaini,-21.2,-175.2,69.96,83,90,8.05,TO,1627382367
bluff,-46.6,168.3333,47.8,75,91,16.75,NZ,1627382368
klaksvik,62.2266,-6.589,54.52,98,100,11.1,FO,1627382368
mar del plata,-38.0023,-57.5575,38.12,60,75,11.01,AR,1627382368
lavrentiya,65.5833,-171.0,43.68,99,100,3.98,RU,1627382368
new norfolk,-42.7826,147.0587,54.91,60,99,1.99,AU,1627382369
mataura,-46.1927,168.8643,47.48,85,88,3.56,NZ,1627382369
cabedelo,-6.9811,-34.8339,72.27,81,54,12.73,BR,1627382369
severo-kurilsk,50.6789,156.125,58.44,98,89,7.65,RU,1627382369
bredasdorp,-34.5322,20.0403,66.27,39,0,2.3,ZA,1627382370
qaanaaq,77.484,-69.3632,43.07,93,100,7.96,GL,1627382370
narsaq,60.9167,-46.05,53.82,73,100,4.34,GL,1627382370
ballina,-28.8667,153.5667,60.98,82,0,5.75,AU,1627382370
yanam,16.7333,82.2167,91.8,44,56,10.49,IN,1627382179
atuona,-9.8,-139.0333,77.13,71,56,21.07,PF,1627382370
hobart,-42.8794,147.3294,55.26,66,20,1.01,AU,1627382298
rodnikovskaya,44.7644,40.6656,64.51,85,100,17.11,RU,1627382371
avera,33.194,-82.5271,76.87,92,9,3.18,US,1627382371
berlevag,70.8578,29.0864,57.2,87,32,14.97,NO,1627382371
castro,-24.7911,-50.0119,61.9,55,49,10.27,BR,1627382370
carnarvon,-24.8667,113.6333,66.27,64,48,14.97,AU,1627382371
tasiilaq,65.6145,-37.6368,42.96,84,29,2.57,GL,1627382372
cayenne,4.9333,-52.3333,78.1,90,0,0.0,GF,1627382352
rehoboth,-23.3167,17.0833,69.04,19,0,3.18,NA,1627382372
san jose,37.3394,-121.895,67.28,79,1,3.44,US,1627382200
katsuura,35.1333,140.3,86.11,78,16,3.6,JP,1627382372
longyearbyen,78.2186,15.6401,46.24,87,75,5.75,SJ,1627382372
portland,45.5234,-122.6762,67.14,78,75,1.01,US,1627382103
bathsheba,13.2167,-59.5167,81.21,78,40,10.36,BB,1627382373
labuhan,-6.8844,112.2051,80.11,71,36,8.52,ID,1627382373
ushuaia,-54.8,-68.3,35.26,87,75,4.61,AR,1627382155
georgiyevka,43.0369,74.7114,93.24,29,0,15.66,KZ,1627382373
talakan,50.3167,130.3667,72.81,90,98,1.88,RU,1627382373
airai,-8.9266,125.4092,59.09,88,72,3.49,TL,1627382374
cape town,-33.9258,18.4232,63.1,68,75,8.01,ZA,1627382374
port alfred,-33.5906,26.891,78.22,27,12,24.74,ZA,1627382374
souillac,-20.5167,57.5167,75.58,73,75,12.66,MU,1627382374
kavieng,-2.5744,150.7967,82.85,76,56,11.45,PG,1627382375
pamanukan,-6.2842,107.8106,77.88,63,15,7.72,ID,1627382375
tuy hoa,13.0833,109.3,89.22,59,38,9.66,VN,1627382375
camana,-16.6228,-72.7111,59.74,87,86,9.91,PE,1627382375
waipawa,-41.4122,175.5153,50.63,88,76,8.1,NZ,1627382376
mwinilunga,-11.7358,24.4293,74.12,21,54,9.24,ZM,1627382376
samarai,-10.6167,150.6667,78.13,87,98,12.24,PG,1627382376
shubarshi,48.5872,57.1869,83.25,29,10,16.02,KZ,1627382376
hithadhoo,-0.6,73.0833,82.18,74,100,7.05,MV,1627382376
tiksi,71.6872,128.8694,37.89,91,94,9.78,RU,1627382377
matara,5.9485,80.5353,83.25,75,97,13.67,LK,1627382377
opelousas,30.5335,-92.0815,78.69,88,1,0.0,US,1627382377
jalu,29.0331,21.5482,96.58,20,0,6.06,LY,1627382377
port hardy,50.6996,-127.4199,51.8,93,20,3.44,CA,1627382378
hobyo,5.3505,48.5268,82.71,62,99,29.06,SO,1627382378
fairview,40.8126,-73.999,76.41,73,1,0.0,US,1627382378
hoquiam,46.9809,-123.8893,59.86,65,90,5.75,US,1627382378
ponta do sol,32.6667,-17.1,77.72,70,7,2.62,PT,1627382379
birigui,-21.2886,-50.34,65.59,43,0,5.91,BR,1627382379
khasan,42.4308,130.6434,75.09,88,33,5.84,RU,1627382211
port lincoln,-34.7333,135.8667,59.5,76,60,28.05,AU,1627382379
jamestown,42.097,-79.2353,69.71,97,1,3.67,US,1627382322
butaritari,3.0707,172.7902,81.34,76,79,7.47,KI,1627382379
avarua,-21.2078,-159.775,69.85,94,75,1.14,CK,1627382380
upernavik,72.7868,-56.1549,47.5,82,99,2.62,GL,1627382380
hermanus,-34.4187,19.2345,66.79,69,1,23.53,ZA,1627382380
benicarlo,40.4165,0.4271,84.9,57,3,10.94,ES,1627382380
lompoc,34.6391,-120.4579,63.57,92,90,0.0,US,1627382381
nakamura,32.9833,132.9333,77.99,89,16,0.89,JP,1627382381
kidal,18.4411,1.4078,99.66,26,83,7.02,ML,1627382381
alepe,5.5004,-3.6631,80.47,59,100,8.48,CI,1627382381
san-pedro,4.7485,-6.6363,80.06,71,86,9.37,CI,1627382381
ponta delgada,37.7333,-25.6667,72.32,88,75,12.66,PT,1627382382
sistranda,63.7256,8.834,78.76,72,87,8.5,NO,1627382382
san ignacio,17.1561,-89.0714,71.74,100,0,0.0,BZ,1627382382
taltal,-25.4,-70.4833,54.45,71,5,2.71,CL,1627382382
fortuna,40.5982,-124.1573,64.42,94,90,0.0,US,1627382383
rassvet,46.8333,40.75,87.66,29,100,17.9,RU,1627382383
nikolskoye,59.7035,30.7861,85.89,29,3,5.03,RU,1627382383
pathein,16.7833,94.7333,81.72,84,100,13.02,MM,1627382383
nagato,34.3833,131.2,84.15,90,12,11.95,JP,1627382383
yangambi,0.8102,24.4336,90.73,35,95,2.13,CD,1627382384
enshi,30.3,109.4833,82.74,79,9,2.91,CN,1627382384
chernyshevskiy,63.0128,112.4714,84.67,43,13,2.42,RU,1627382384
dingle,10.9995,122.6711,80.37,80,92,13.47,PH,1627382384
port elizabeth,-33.918,25.5701,81.1,21,0,13.8,ZA,1627382385
anadyr,64.75,177.4833,54.1,93,90,2.24,RU,1627382385
wasilla,61.5814,-149.4394,54.52,89,1,0.0,US,1627382385
tessalit,20.1986,1.0114,98.11,26,68,2.01,ML,1627382385
hensall,43.4334,-81.4998,69.01,90,36,5.91,CA,1627382385
baruun-urt,46.6806,113.2792,72.23,47,66,2.53,MN,1627382386
jejuri,18.2833,74.1667,77.92,66,100,21.9,IN,1627382386
kaitangata,-46.2817,169.8464,45.93,68,80,5.17,NZ,1627382386
balabac,7.9868,117.0645,83.68,80,98,16.11,PH,1627382386
kodiak,57.79,-152.4072,51.31,76,1,6.91,US,1627382387
pafos,34.7667,32.4167,95.23,70,0,12.66,CY,1627382387
kruisfontein,-34.0033,24.7314,78.89,21,0,23.42,ZA,1627382387
paraiso,9.8383,-83.8656,62.42,95,97,2.08,CR,1627382387
kyra,49.5776,111.9753,67.68,76,79,0.92,RU,1627382388
saint-philippe,-21.3585,55.7679,74.79,75,100,11.77,RE,1627382388
bethel,41.3712,-73.414,69.64,90,1,0.0,US,1627382388
kargopol,61.5071,38.9456,70.75,33,25,5.17,RU,1627382388
noyabrsk,63.1994,75.4507,62.46,52,100,2.42,RU,1627382388
riyadh,24.6877,46.7219,114.85,6,0,12.66,SA,1627382166
kasongo-lunda,-6.4667,16.8167,91.62,13,44,6.15,CD,1627382389
san quintin,30.4833,-115.95,66.79,90,0,6.98,MX,1627382389
lagoa,39.05,-27.9833,70.48,88,100,11.32,PT,1627382389
isangel,-19.55,169.2667,70.83,70,85,12.73,VU,1627382389
mount gambier,-37.8333,140.7667,58.91,67,90,18.41,AU,1627382390
saldanha,-33.0117,17.9442,60.85,75,22,17.92,ZA,1627382390
kampot,10.6167,104.1833,86.05,80,29,12.21,KH,1627382390
togur,58.3631,82.8265,61.41,60,92,8.25,RU,1627382390
faya,18.3851,42.4509,75.31,53,89,6.02,SA,1627382391
cabo rojo,18.0866,-67.1457,77.97,87,37,5.28,PR,1627382286
nhulunbuy,-12.2333,136.7667,77.61,83,40,9.22,AU,1627382391
svetlogorsk,52.6333,29.7333,87.08,34,51,13.42,BY,1627382391
yasugi,35.4333,133.25,84.15,78,75,6.91,JP,1627382391
la macarena,2.1837,-73.7849,69.35,100,100,1.61,CO,1627382391
sao miguel do araguaia,-13.275,-50.1628,73.71,40,4,3.85,BR,1627382159
eenhana,-17.4667,16.3333,71.35,18,0,11.41,NA,1627382392
barrow,71.2906,-156.7887,42.82,87,90,4.61,US,1627382392
thinadhoo,0.5333,72.9333,81.9,73,100,4.85,MV,1627382392
lebu,-37.6167,-73.65,43.9,77,2,18.99,CL,1627382392
charters towers,-20.1,146.2667,59.77,79,15,11.65,AU,1627382393
lodja,-3.4833,23.4333,95.61,15,31,4.41,CD,1627382110
bengkulu,-3.8004,102.2655,81.32,73,3,6.55,ID,1627382393
loja,-3.9931,-79.2042,51.3,96,25,3.33,EC,1627382393
constitucion,-35.3333,-72.4167,41.65,72,1,9.04,CL,1627382393
akyab,20.15,92.9,81.14,85,100,18.77,MM,1627382394
conde,-7.2597,-34.9075,71.06,100,75,8.05,BR,1627382394
camacha,33.0833,-16.3333,72.36,73,75,14.97,PT,1627382394
gumdag,39.2061,54.5906,107.65,15,2,7.31,TM,1627382394
bull savanna,17.8868,-77.5902,76.01,81,42,7.7,JM,1627382395
houma,29.5958,-90.7195,78.98,96,1,1.01,US,1627382185
saskylakh,71.9167,114.0833,65.79,52,54,13.44,RU,1627382395
dikson,73.5069,80.5464,39.58,96,100,19.86,RU,1627382395
xichang,27.8964,102.2634,75.52,81,74,2.21,CN,1627382395
basi,26.8333,76.0333,80.94,82,100,13.18,IN,1627382396
hualmay,-11.0964,-77.6139,62.65,89,53,5.37,PE,1627382396
zyryanka,65.75,150.85,51.39,56,84,9.48,RU,1627382396
quatre cocos,-20.2078,57.7625,75.31,75,48,13.98,MU,1627382396
qaqortoq,60.7167,-46.0333,54.1,68,100,4.21,GL,1627382396
arraial do cabo,-22.9661,-42.0278,67.86,83,0,10.36,BR,1627382397
monrovia,6.3005,-10.7969,78.26,80,91,14.34,LR,1627382245
nisia floresta,-6.0911,-35.2086,74.21,76,70,10.27,BR,1627382397
plainview,40.7765,-73.4673,76.89,83,1,0.0,US,1627382397
damietta,31.4165,31.8133,85.89,49,0,11.18,EG,1627382397
yatou,37.15,122.3833,77.97,81,98,5.91,CN,1627382398
amberley,39.2048,-84.428,67.19,91,1,0.0,US,1627382398
el limon,10.3059,-67.6321,71.65,89,68,1.1,VE,1627382398
hasaki,35.7333,140.8333,75.6,74,60,20.6,JP,1627382398
alice springs,-23.7,133.8833,80.15,22,9,16.11,AU,1627382199
catamarca,-28.4696,-65.7852,49.5,59,1,4.72,AR,1627382386
kavaratti,10.5669,72.642,82.06,81,100,18.43,IN,1627382399
honningsvag,70.9821,25.9704,56.73,82,0,3.44,NO,1627382399
thompson,55.7435,-97.8558,46.56,93,20,2.3,CA,1627382399
georgetown,5.4112,100.3354,89.55,66,40,6.91,MY,1627382399
shenjiamen,29.9576,122.298,78.71,90,100,22.59,CN,1627382399
yambio,4.5721,28.3955,69.21,95,100,0.67,SS,1627382400
pusad,19.9,77.5833,84.83,63,100,14.12,IN,1627382400
chokurdakh,70.6333,147.9167,38.8,78,100,11.52,RU,1627382400
alta floresta,-9.8756,-56.0861,69.22,55,72,2.71,BR,1627382400
horasan,40.0458,42.1728,90.95,11,3,12.1,TR,1627382401
campbell river,50.0163,-125.2446,62.13,73,1,7.4,CA,1627382130
nyurba,63.2842,118.3319,81.55,54,7,5.64,RU,1627382401
torbay,47.6666,-52.7314,62.28,95,90,16.11,CA,1627382401
kahului,20.8947,-156.47,77.85,89,1,18.41,US,1627382387
altus,34.6381,-99.334,77.07,83,1,4.61,US,1627382294
bambanglipuro,-7.95,110.2833,76.37,79,19,10.63,ID,1627382401
nishihara,26.1842,127.7558,83.48,87,75,13.8,JP,1627382402
cabo san lucas,22.8909,-109.9124,84.51,72,16,9.78,MX,1627382309
lata,40.1629,-8.3327,76.35,37,21,6.64,PT,1627382402
emborion,40.4833,21.55,96.31,16,0,3.49,GR,1627382402
storsteinnes,69.2408,19.2344,75.85,52,37,1.79,NO,1627382402
peniche,39.3558,-9.3811,79.74,74,2,15.95,PT,1627382403
carballo,43.213,-8.691,71.91,79,82,4.92,ES,1627382403
batticaloa,7.7102,81.6924,89.04,59,99,1.05,LK,1627382404
kalmunai,7.4167,81.8167,88.7,60,91,4.18,LK,1627382404
westport,41.1415,-73.3579,74.95,84,1,1.01,US,1627382404
san patricio,28.017,-97.5169,81.84,90,4,4.0,US,1627382404
bambous virieux,-20.3428,57.7575,75.45,73,75,12.66,MU,1627382405
nanortalik,60.1432,-45.2371,45.77,80,100,2.75,GL,1627382405
cherskiy,68.75,161.3,35.58,91,12,18.5,RU,1627382405
jaltenco,19.7506,-99.0956,57.99,86,90,2.39,MX,1627382405
solnechnyy,50.7214,136.6319,66.7,99,99,4.12,RU,1627382406
ibra,22.6906,58.5334,105.42,22,49,9.28,OM,1627382406
mogzon,51.7435,111.9606,62.94,87,81,4.85,RU,1627382406
tongzi,28.7829,105.0877,82.83,80,18,0.89,CN,1627382406
inhambane,-23.865,35.3833,76.98,41,20,4.61,MZ,1627382407
yeppoon,-23.1333,150.7333,60.58,82,7,5.28,AU,1627382407
roald,62.5833,6.1333,76.12,77,0,9.22,NO,1627382407
mao,39.8885,4.2658,82.96,51,20,9.22,ES,1627382407
columbus,39.9612,-82.9988,64.99,94,1,0.0,US,1627382408
coihaique,-45.5752,-72.0662,31.95,86,0,4.61,CL,1627382408
nowa sol,51.8033,15.717,84.96,41,7,11.45,PL,1627382365
limbang,4.75,115.0,88.11,85,62,0.96,MY,1627382408
kenai,60.5544,-151.2583,51.1,90,1,3.44,US,1627382408
nelson bay,-32.7167,152.15,59.0,84,21,1.01,AU,1627382109
pevek,69.7008,170.3133,34.34,94,99,17.98,RU,1627382409
port blair,11.6667,92.75,83.46,83,39,18.81,IN,1627382409
san luis,-33.295,-66.3356,33.67,39,1,0.38,AR,1627382409
byron bay,-28.65,153.6167,60.91,71,0,11.5,AU,1627382128
ipira,-12.1583,-39.7372,68.67,83,52,5.06,BR,1627382409
richards bay,-28.783,32.0377,76.51,27,2,16.31,ZA,1627382410
yerbogachen,61.2767,108.0108,84.96,43,1,5.06,RU,1627382410
kijang,35.2442,129.2139,85.73,82,0,10.65,KR,1627382410
marawi,7.9986,124.2928,72.0,86,100,7.0,PH,1627382410
maningrida,-12.0667,134.2667,75.63,87,29,9.75,AU,1627382411
batavia,41.85,-88.3126,72.77,85,1,1.99,US,1627382382
sitka,57.0531,-135.33,57.09,88,90,6.91,US,1627382411
cao bang,22.6667,106.25,82.81,87,73,1.74,VN,1627382307
hailey,43.5196,-114.3153,62.46,42,1,9.22,US,1627382411
la ronge,55.1001,-105.2842,62.82,72,40,4.61,CA,1627382411
tuktoyaktuk,69.4541,-133.0374,45.01,76,100,8.52,CA,1627382411
port hedland,-20.3167,118.5667,73.45,83,57,12.66,AU,1627382412
high level,58.5169,-117.136,53.71,94,20,12.66,CA,1627382412
wilmington,34.2257,-77.9447,80.51,94,75,6.91,US,1627382309
yulara,-25.2406,130.9889,75.04,20,8,10.36,AU,1627382412
copiapo,-27.3667,-70.3333,42.49,58,0,0.92,CL,1627382333
montepuez,-13.1256,38.9997,79.99,31,30,6.64,MZ,1627382412
voloshka,61.3314,40.0858,69.44,35,7,6.46,RU,1627382413
benito juarez,19.385,-99.165,57.99,80,84,1.99,MX,1627382413
saint george,37.1041,-113.5841,76.35,89,1,0.0,US,1627382413
hofn,64.2539,-15.2082,53.62,87,90,8.05,IS,1627382413
berezanka,46.8526,31.388,90.0,30,6,6.44,UA,1627382414
evensk,61.95,159.2333,55.38,75,99,6.02,RU,1627382414
chaibasa,22.5667,85.8167,82.33,79,99,15.79,IN,1627382414
tigil,57.8,158.6667,51.67,98,100,9.71,RU,1627382414
fomboni,-12.28,43.7425,76.53,68,39,10.22,KM,1627382415
beyla,8.6833,-8.6333,75.6,83,83,6.85,GN,1627382415
bonavista,48.6499,-53.1147,60.12,94,87,14.94,CA,1627382415
praia,14.9215,-23.5087,77.54,73,75,9.22,CV,1627382415
bosobolo,4.1833,19.9,77.52,81,99,1.43,CD,1627382416
putina,-15.4667,-69.4333,39.69,74,1,3.33,PE,1627382416
mandalgovi,45.7625,106.2708,73.29,41,59,4.7,MN,1627382416
havelock,34.8791,-76.9013,77.02,94,84,4.21,US,1627382302
namatanai,-3.6667,152.4333,80.33,80,16,8.61,PG,1627382416
leshukonskoye,64.8989,45.7622,49.19,73,100,11.03,RU,1627382146
mount isa,-20.7333,139.5,62.37,34,4,0.0,AU,1627382417
deputatskiy,69.3,139.9,44.76,65,85,11.5,RU,1627382417
arman,59.7,150.1667,59.47,71,75,4.83,RU,1627382417
salalah,17.0151,54.0924,82.49,83,75,17.27,OM,1627382417
three hills,51.7001,-113.2686,57.49,100,0,5.75,CA,1627382417
kirakira,-10.4544,161.9205,78.82,85,49,8.86,SB,1627382418
caorle,45.5966,12.8758,78.26,86,87,4.36,IT,1627382418
geraldton,-28.7667,114.6,62.13,72,90,10.36,AU,1627382418
kieta,-6.2167,155.6333,79.81,83,67,4.7,PG,1627382418
sao joao da barra,-21.6403,-41.0511,64.49,69,0,9.78,BR,1627382419
misratah,32.3754,15.0925,84.51,50,0,13.73,LY,1627382419
shimoda,34.6667,138.95,82.51,86,100,5.82,JP,1627382419
saint-michel-des-saints,46.6834,-73.9159,50.59,90,65,3.56,CA,1627382419
jurado,7.1053,-77.7641,73.92,93,93,2.73,CO,1627382420
ribeira grande,38.5167,-28.7,75.6,73,75,9.22,PT,1627382420
husavik,66.0449,-17.3389,53.51,85,100,9.69,IS,1627382420
roma,43.2128,-75.4557,67.87,92,1,0.0,US,1627382219
la tuque,47.4334,-72.7824,55.65,76,70,4.61,CA,1627382240
palaia fokaia,37.72,23.9463,95.85,38,0,21.23,GR,1627382420
stryn,61.9045,6.7226,80.15,65,100,2.33,NO,1627382420
hericourt,47.5731,6.7614,78.58,70,100,1.92,FR,1627382421
mier,26.4333,-99.15,77.68,84,5,7.38,MX,1627382421
hervey bay,-25.2986,152.8535,61.03,76,1,3.96,AU,1627382421
sibolga,1.7427,98.7792,82.4,79,87,2.35,ID,1627382421
tuatapere,-46.1333,167.6833,47.82,84,82,8.34,NZ,1627382229
nabire,-3.3667,135.4833,78.39,88,75,3.38,ID,1627382129
codrington,-38.2667,141.9667,54.63,86,100,19.46,AU,1627382422
jacareacanga,-6.2222,-57.7528,70.84,62,81,2.15,BR,1627382422
nioro,13.35,-15.75,87.44,57,35,6.49,GM,1627382422
calvinia,-31.4707,19.776,63.75,33,0,19.04,ZA,1627382423
tual,-5.6667,132.75,81.93,81,84,15.86,ID,1627382423
muisne,0.6,-80.0333,75.11,85,100,5.28,EC,1627382423
beringovskiy,63.05,179.3167,50.67,96,100,8.46,RU,1627382423
mildura,-34.2,142.15,66.16,30,86,21.85,AU,1627382423
konongo,6.6167,-1.2167,82.51,55,100,6.2,GH,1627382424
borogontsy,62.6683,131.1683,72.81,45,10,8.14,RU,1627382424
yafran,32.0633,12.5286,88.88,20,0,5.61,LY,1627382424
myre,69.1036,15.9492,66.42,94,47,15.08,NO,1627382424
yarmouth,41.7057,-70.2286,72.97,86,1,1.01,US,1627382425
arandis,-22.4167,14.9667,82.24,14,0,12.01,NA,1627382425
venado tuerto,-33.7456,-61.9688,33.76,39,0,11.18,AR,1627382425
mahebourg,-20.4081,57.7,75.49,73,75,12.66,MU,1627382425
okhotsk,59.3833,143.3,62.65,88,61,8.3,RU,1627382425
santa rosa,14.3122,121.1114,83.1,86,92,14.58,PH,1627382426
nicolas bravo,18.45,-88.9167,71.4,99,31,1.07,MX,1627382426
sao filipe,14.8961,-24.4956,75.52,80,36,8.7,CV,1627382426
sosnogorsk,63.6023,53.8817,45.37,91,93,9.66,RU,1627382426
saulkrasti,57.2622,24.4147,71.55,73,100,14.27,LV,1627382427
nexo,55.0607,15.1306,71.69,81,100,11.21,DK,1627382427
ilulissat,69.2167,-51.1,62.62,51,75,17.27,GL,1627382427
half moon bay,37.4636,-122.4286,66.63,87,1,0.0,US,1627382427
aketi,2.7388,23.7833,90.84,43,92,0.49,CD,1627382428
basco,20.4487,121.9702,83.16,87,97,24.85,PH,1627382428
broome,42.2506,-75.833,65.68,87,0,2.13,US,1627382428
clyde river,70.4692,-68.5914,37.63,100,90,3.44,CA,1627382428
zhigalovo,54.8097,105.1578,78.4,44,29,3.85,RU,1627382428
chara,56.9064,118.2631,75.09,56,6,1.88,RU,1627382429
ayagoz,47.9714,80.4392,76.96,28,9,19.75,KZ,1627382429
awjilah,29.1081,21.2869,96.51,20,0,5.75,LY,1627382429
durban,-29.8579,31.0292,77.92,46,7,3.0,ZA,1627382256
vila franca do campo,37.7167,-25.4333,72.01,81,50,7.83,PT,1627382429
kathmandu,27.7167,85.3167,79.02,78,75,8.05,NP,1627382196
pareora,-44.4871,171.2132,41.18,91,47,5.03,NZ,1627382430
provideniya,64.3833,-173.3,46.63,99,100,10.0,RU,1627382430
sachin,21.0833,72.8833,84.09,79,90,13.8,IN,1627382356
mucuri,-18.0864,-39.5508,70.75,81,3,3.83,BR,1627382430
qinzhou,21.95,108.6167,85.82,80,93,9.04,CN,1627382430
dayong,25.0209,118.2898,85.68,79,97,4.5,CN,1627382431
bedford,52.1346,-0.4663,71.58,76,20,8.05,GB,1627382383
adre,13.4667,22.2,84.16,53,99,6.17,TD,1627382225
batemans bay,-35.7167,150.1833,59.92,69,53,10.25,AU,1627382431
saint-augustin,51.226,-58.6502,58.57,98,100,4.63,CA,1627382431
birjand,32.8663,59.2211,93.67,11,0,24.16,IR,1627382431
seymchan,62.8833,152.4333,52.16,60,99,8.72,RU,1627382432
lethem,3.3803,-59.7968,74.03,91,28,5.17,GY,1627382432
mahibadhoo,3.7833,72.9667,81.5,77,92,10.33,MV,1627382432
debre birhan,9.6833,39.5333,60.93,69,73,4.14,ET,1627382432
garissa,-0.4536,39.6401,89.6,33,72,25.05,KE,1627382433
vardo,70.3705,31.1107,57.4,100,39,10.36,NO,1627382433
maltahohe,-24.8333,16.9833,69.57,19,0,8.37,NA,1627382433
nalut,30.3333,10.85,96.26,13,0,5.66,LY,1627382433
wenling,28.3669,121.36,80.91,93,100,7.4,CN,1627382434
utete,-7.986,38.758,90.07,24,11,7.2,TZ,1627382434
imeni poliny osipenko,52.4201,136.4853,65.43,91,99,3.15,RU,1627382434
patharia,23.9,79.2,76.39,86,100,17.36,IN,1627382434
palora,-1.7,-77.9333,62.62,80,60,3.15,EC,1627382434
faanui,-16.4833,-151.75,78.4,74,70,7.85,PF,1627382435
vilhena,-12.7406,-60.1458,68.68,61,10,2.08,BR,1627382435
matagami,49.7502,-77.6328,42.91,100,90,3.44,CA,1627382435
keffi,8.8486,7.8736,77.38,87,100,4.41,NG,1627382435
batagay-alyta,67.8006,130.4114,55.72,55,95,11.54,RU,1627382436
novoalekseyevskaya,44.8189,40.9339,63.61,85,100,17.96,RU,1627382436
tazovskiy,67.4667,78.7,44.15,95,100,20.0,RU,1627382436
pangnirtung,66.1451,-65.7125,48.11,98,84,1.92,CA,1627382436
rietavas,55.7194,21.9311,75.81,92,98,7.47,LT,1627382437
smithers,54.7804,-127.1743,44.92,100,75,2.3,CA,1627382437
carutapera,-1.195,-46.02,78.4,88,34,4.81,BR,1627382437
west fargo,46.875,-96.9004,69.85,93,1,6.91,US,1627382193
bose,45.4612,8.0137,77.74,82,87,3.49,IT,1627382437
bafq,31.6128,55.4107,101.77,12,2,22.93,IR,1627382437
kayerkan,69.3497,87.7602,81.5,43,82,17.92,RU,1627382438
ahuimanu,21.4447,-157.8378,78.51,71,1,11.5,US,1627382438
nata,8.3333,-80.5167,72.46,92,100,1.99,PA,1627382438
guerrero negro,27.9769,-114.0611,66.9,85,0,8.46,MX,1627382438
egvekinot,66.3167,-179.1667,45.82,95,100,7.49,RU,1627382439
musoma,-1.5,33.8,82.42,39,20,0.0,TZ,1627382439
barranca,-10.75,-77.7667,62.74,89,75,4.97,PE,1627382439
satuk,41.2263,32.3836,78.58,43,14,7.27,TR,1627382439
huercal-overa,37.389,-1.9454,90.23,55,0,6.44,ES,1627382440
hamilton,39.1834,-84.5333,67.98,94,1,0.0,US,1627382430
bubaque,11.2833,-15.8333,80.55,78,9,4.47,GW,1627382440
warrington,53.3925,-2.5802,69.91,77,75,1.01,GB,1627382440
vestmanna,62.1564,-7.1664,52.72,100,90,5.75,FO,1627382440
touros,-5.1989,-35.4608,74.3,74,27,13.24,BR,1627382392
tralee,52.2704,-9.7026,62.85,72,20,9.22,IE,1627382441
paliyad,22.25,71.5667,85.84,69,100,20.62,IN,1627382441
bissau,11.8636,-15.5977,83.23,73,29,4.72,GW,1627382441
flinders,-34.5833,150.8552,61.38,66,82,1.01,AU,1627382441
timra,62.487,17.3257,78.48,38,20,11.5,SE,1627382391
alofi,-19.0595,-169.9187,67.89,94,48,1.14,NU,1627382442
paamiut,61.994,-49.6678,44.49,92,100,17.81,GL,1627382442
afrikanda,67.4429,32.7828,68.94,100,62,0.94,RU,1627382442
praia da vitoria,38.7333,-27.0667,77.76,94,75,11.99,PT,1627382381
pangody,65.85,74.4859,62.71,41,57,10.98,RU,1627382442
rocha,-34.4833,-54.3333,40.44,63,63,14.54,UY,1627382442
maragogi,-9.0122,-35.2225,76.77,83,39,10.36,BR,1627382355
raudeberg,61.9875,5.1352,70.47,90,100,3.78,NO,1627382443
leningradskiy,69.3833,178.4167,36.54,96,100,5.08,RU,1627382443
isiro,2.7739,27.616,75.25,77,87,4.12,CD,1627382444
dulcesti,46.9667,26.7667,93.0,42,41,3.58,RO,1627382444
puerto baquerizo moreno,-0.9,-89.6,70.88,74,41,12.57,EC,1627382444
haines junction,60.7522,-137.5108,48.15,93,99,2.3,CA,1627382444
los llanos de aridane,28.6585,-17.9182,71.35,85,40,18.41,ES,1627382445
ostrovnoy,68.0531,39.5131,48.49,78,87,18.23,RU,1627382445
rawson,-43.3002,-65.1023,41.67,68,75,28.12,AR,1627382445
iquitos,-3.7481,-73.2472,73.44,100,40,0.0,PE,1627382445
fayaoue,-20.65,166.5333,70.99,63,34,18.37,NC,1627382446
lorengau,-2.0226,147.2712,82.51,75,60,7.94,PG,1627382446
ndjole,-0.1783,10.7649,90.41,45,85,2.1,GA,1627382446
inta,66.0317,60.1659,50.41,63,98,6.69,RU,1627382446
vung tau,10.346,107.0843,85.59,70,62,20.45,VN,1627382393
scottsbluff,41.8666,-103.6672,72.28,69,1,4.61,US,1627382447
vestmannaeyjar,63.4427,-20.2734,54.59,71,20,6.91,IS,1627382447
lazaro cardenas,17.9583,-102.2,79.18,85,100,4.61,MX,1627382447
sri aman,1.2376,111.4621,87.85,74,76,0.0,MY,1627382447
loandjili,-4.7561,11.8578,80.71,69,40,12.66,CG,1627382448
vao,-22.6667,167.4833,68.43,60,2,16.53,NC,1627382448
great falls,47.5002,-111.3008,80.69,29,1,1.01,US,1627382448
mulege,26.8833,-111.9833,84.97,54,0,0.74,MX,1627382448
udachnyy,66.4167,112.4,86.09,37,77,5.35,RU,1627382449
koumac,-20.5667,164.2833,67.3,72,18,4.21,NC,1627382449
aklavik,68.2191,-135.0107,54.32,82,99,4.23,CA,1627382449
moa,20.6569,-74.9403,78.58,84,92,5.59,CU,1627382449
noumea,-22.2763,166.4572,62.58,69,1,9.33,NC,1627382449
newport,51.5877,-2.9984,70.43,83,100,6.91,GB,1627382450
khuzhir,53.1939,107.3397,60.76,66,8,7.87,RU,1627382450
xining,36.6167,101.7667,65.44,56,58,4.72,CN,1627382347
suntar,62.1444,117.6319,84.65,48,6,5.26,RU,1627382450
mhlume,-26.0333,31.85,71.87,22,0,9.51,SZ,1627382450
teya,60.3778,92.6267,63.43,96,97,5.75,RU,1627382451
comodoro rivadavia,-45.8667,-67.5,44.46,57,0,14.97,AR,1627382451
wanaka,-44.7,169.15,38.23,83,44,4.99,NZ,1627382331
sungairaya,0.7,108.9,82.42,79,24,8.66,ID,1627382451
pimentel,-6.8367,-79.9342,64.99,87,92,4.0,PE,1627382451
the valley,18.217,-63.0578,82.09,75,21,18.77,AI,1627382452
puerto escondido,15.85,-97.0667,77.58,82,85,4.29,MX,1627382452
kibre mengist,5.8833,38.9833,68.45,56,99,6.82,ET,1627382452
san angelo,31.4638,-100.437,73.42,59,1,1.99,US,1627382346
onega,63.9061,38.1404,62.13,51,6,9.01,RU,1627382452
buala,-8.145,159.5921,80.17,84,91,8.55,SB,1627382453
mvuma,-19.2792,30.5283,66.45,28,11,9.66,ZW,1627382453
asau,46.4333,26.4,87.28,45,56,2.3,RO,1627382453
san cristobal,7.7669,-72.225,65.01,99,98,3.24,VE,1627382453
emmett,43.8735,-116.4993,80.92,45,62,1.99,US,1627382453
wladyslawowo,54.7909,18.4009,88.77,65,73,8.1,PL,1627382454
subate,56.0062,25.9076,82.2,48,99,12.53,LV,1627382454
porto-vecchio,41.591,9.2795,89.26,45,0,10.36,FR,1627382454
dom pedro,-4.4833,-44.45,77.13,63,6,1.92,BR,1627382454
roblin,51.23,-101.3565,56.14,72,0,5.01,CA,1627382455
agira,37.6562,14.5216,94.06,14,0,7.78,IT,1627382455
wilmington manor,39.6868,-75.5844,73.27,79,1,0.0,US,1627382455
bay roberts,47.5999,-53.2648,63.03,97,75,12.06,CA,1627382455
fare,-16.7,-151.0167,78.46,70,45,9.17,PF,1627382456
port augusta,-32.5,137.7667,62.74,71,91,28.07,AU,1627382456
port-gentil,-0.7193,8.7815,82.36,65,40,10.36,GA,1627382456
macherla,16.4833,79.4333,92.53,44,72,19.1,IN,1627382456
meulaboh,4.1363,96.1285,83.75,73,65,9.13,ID,1627382457
opunake,-39.4556,173.8583,51.33,72,39,20.36,NZ,1627382457
kiama,-34.6833,150.8667,61.57,63,82,3.0,AU,1627382457
cap-aux-meules,47.3821,-61.8597,64.45,100,90,5.75,CA,1627382457
ahipara,-35.1667,173.1667,54.68,74,7,11.61,NZ,1627382457
kurchum,48.5722,83.6542,82.62,34,5,18.72,KZ,1627382458
sylacauga,33.1732,-86.2516,77.07,93,90,3.44,US,1627382458
luderitz,-26.6481,15.1594,65.37,59,9,11.79,NA,1627382458
rudnogorsk,57.2639,103.7519,86.94,33,55,2.46,RU,1627382458
namibe,-15.1961,12.1522,79.43,65,0,0.0,AO,1627382459
ajdabiya,30.7554,20.2263,92.79,28,0,7.96,LY,1627382459
yar-sale,66.8333,70.8333,61.11,46,53,9.6,RU,1627382459
biu,10.6129,12.1946,67.55,91,100,9.48,NG,1627382459
srandakan,-7.9386,110.2506,76.59,79,19,10.47,ID,1627382459
horconcitos,8.4682,-81.8007,66.43,95,95,2.08,PA,1627382460
betare oya,5.6,14.0833,76.77,68,91,7.14,CM,1627382460
kahuta,33.5913,73.3868,92.5,58,77,6.38,PK,1627382460
bilma,18.6853,12.9164,97.61,32,52,2.53,NE,1627382460
unhel,23.3333,75.5667,74.44,91,100,10.92,IN,1627382461
yendi,9.4427,-0.0099,81.36,64,100,9.01,GH,1627382461
lola,7.8,-8.5333,73.27,93,100,4.07,GN,1627382461
nouadhibou,20.931,-17.0347,75.18,73,0,25.32,MR,1627382461
viedma,-40.8135,-62.9967,42.96,58,56,25.03,AR,1627382462
nortelandia,-14.4547,-56.8028,71.02,53,7,2.44,BR,1627382462
christchurch,-43.5333,172.6333,44.47,88,31,2.3,NZ,1627382462
nantucket,41.2835,-70.0995,71.96,93,1,5.75,US,1627382439
henties bay,-22.116,14.2845,74.16,38,0,7.85,NA,1627382462
santarem,-2.4431,-54.7083,73.53,100,0,0.0,BR,1627382453
sabzevar,36.2126,57.6819,99.68,19,0,23.02,IR,1627382463
kangaatsiaq,68.3065,-53.4641,49.12,80,55,10.83,GL,1627382463
bereda,43.2686,-7.5406,74.41,79,86,3.49,ES,1627382463
kutum,14.2,24.6667,80.87,51,79,7.47,SD,1627382463
choma,-16.8065,26.9531,64.81,35,100,10.22,ZM,1627382464
dekar,-21.5333,21.9333,66.54,23,0,9.69,BW,1627382464
ossora,59.2353,163.0719,56.17,86,81,5.73,RU,1627382464
pisco,-13.7,-76.2167,57.25,88,0,3.44,PE,1627382464
dabakala,8.3667,-4.4333,80.73,66,100,8.55,CI,1627382464
morehead,37.2711,-87.1764,73.11,97,1,0.0,US,1627382465
burnie,-41.0667,145.9167,56.91,80,100,23.71,AU,1627382465
ixtapa,20.7,-105.2,73.98,79,38,3.24,MX,1627382465
kalianget,-7.05,113.9333,79.74,69,42,13.13,ID,1627382465
sur,22.5667,59.5289,99.1,44,82,7.67,OM,1627382466
sinnamary,5.3833,-52.95,77.16,88,44,5.1,GF,1627382466
russkoye,45.0167,34.8,86.68,30,0,12.5,UA,1627382466
koulikoro,14.0,-7.75,81.57,60,100,9.86,ML,1627382466
victoria,22.2855,114.1577,93.22,78,98,1.01,HK,1627382341
okato,-39.2,173.8833,50.41,75,77,15.55,NZ,1627382467
belmonte,-15.8631,-38.8828,66.7,83,19,2.13,BR,1627382467
oriximina,-1.7656,-55.8661,75.96,64,7,1.7,BR,1627382467
dwarka,22.2394,68.9678,84.04,79,100,27.92,IN,1627382467
porbandar,21.6422,69.6093,83.1,82,100,24.38,IN,1627382408
winnemucca,40.973,-117.7357,78.85,36,90,14.97,US,1627382467
muros,42.7762,-9.0603,72.99,77,62,9.37,ES,1627382468
haicheng,40.8516,122.7475,80.19,65,94,3.62,CN,1627382468
ewa beach,21.3156,-158.0072,78.75,69,1,11.01,US,1627382468
luganville,-15.5333,167.1667,76.64,87,100,13.73,VU,1627382468
manati,18.4275,-66.4921,80.19,94,16,8.86,PR,1627382469
sobolevo,54.4299,31.8996,81.43,45,80,12.68,RU,1627382469
labuan,5.2767,115.2417,88.16,70,20,4.61,MY,1627382469
preobrazheniye,42.9019,133.9064,73.92,93,20,1.1,RU,1627382469
krasnoselkup,65.7,82.4667,49.69,96,100,13.78,RU,1627382470
talnakh,69.4865,88.3972,81.63,45,82,11.48,RU,1627382470
sangar,63.9242,127.4739,65.53,54,2,6.87,RU,1627382470
olavarria,-36.8927,-60.3225,36.59,66,17,17.13,AR,1627382470
coronel vivida,-25.9797,-52.5678,57.34,97,100,9.86,BR,1627382393
ambon,-3.6954,128.1814,77.14,94,40,5.75,ID,1627382471
ville-marie,47.3335,-79.433,53.6,97,93,3.38,CA,1627382471
marechal candido rondon,-24.5561,-54.0567,63.43,94,100,12.86,BR,1627382471
baykit,61.67,96.37,90.0,28,12,8.23,RU,1627382471
te anau,-45.4167,167.7167,43.38,95,87,5.55,NZ,1627382471
novoagansk,61.9449,76.6625,62.28,60,100,5.41,RU,1627382472
sumbawanga,-7.9667,31.6167,67.8,37,1,3.44,TZ,1627382472
izhma,65.0083,53.9113,48.79,88,100,11.41,RU,1627382472
college,64.8569,-147.8028,60.78,74,90,8.05,US,1627382472
new iberia,30.0035,-91.8187,78.87,94,1,0.0,US,1627382473
nara,34.6851,135.8049,87.17,94,97,5.12,JP,1627382473
cururupu,-1.8283,-44.8683,77.54,92,38,3.67,BR,1627382473
platanos,37.6667,21.6167,103.57,25,0,9.04,GR,1627382473
tambopata,-12.7333,-69.1833,73.11,70,87,2.21,PE,1627382474
kyabe,9.4515,18.9449,69.37,97,100,8.21,TD,1627382284
zheleznodorozhnyy,55.7503,38.0042,82.62,27,3,3.24,RU,1627382474
san carlos de bariloche,-41.1456,-71.3082,22.75,80,0,3.44,AR,1627382474
serowe,-22.3833,26.7167,64.47,29,0,8.75,BW,1627382474
andenes,69.3143,16.1194,66.47,100,90,6.91,NO,1627382474
muli,2.9167,73.5667,82.74,72,100,9.31,MV,1627382475
okha,53.5739,142.9478,63.64,84,100,6.29,RU,1627382475
binga,-17.6203,27.3414,69.17,40,80,7.49,ZW,1627382475
provost,52.3501,-110.2683,64.85,65,2,6.44,CA,1627382475
sioux lookout,50.1001,-91.917,55.78,100,75,0.0,CA,1627382476
hokitika,-42.7167,170.9667,46.58,84,77,3.22,NZ,1627382476
fuling,29.7022,107.3919,83.12,86,68,2.8,CN,1627382476
payo,-3.7508,103.6372,78.04,68,2,2.93,ID,1627382476
nizhneudinsk,54.9076,99.0276,71.6,76,98,8.68,RU,1627382477
tilichiki,60.4667,166.1,47.98,94,100,5.97,RU,1627382477
oranjemund,-28.55,16.4333,62.78,61,0,3.65,NA,1627382477
naze,28.3667,129.4833,79.72,87,100,11.39,JP,1627382477
dolores,-36.3132,-57.6792,36.55,54,46,16.91,AR,1627382477
biak,-0.9131,122.8766,76.05,80,76,7.43,ID,1627382478
ingham,42.6,-84.3833,69.57,82,1,3.44,US,1627382478
durham,36.0335,-78.8664,73.81,88,75,4.61,US,1627382358
maria chiquita,9.4431,-79.7558,76.15,90,96,3.94,PA,1627382478
savannah bight,16.45,-85.85,80.01,75,11,18.7,HN,1627382478
huilong,31.8111,121.655,80.04,94,100,27.42,CN,1627382479
skjervoy,70.0311,20.9714,59.0,95,91,4.38,NO,1627382479
sept-iles,50.2001,-66.3821,61.32,98,90,1.99,CA,1627382479
kulhudhuffushi,6.6221,73.07,81.9,77,100,17.56,MV,1627382479
clinton,42.587,-82.9199,73.42,75,1,3.0,US,1627382480
athabasca,54.7169,-113.2854,58.82,92,76,9.35,CA,1627382480
ulaangom,49.9811,92.0667,78.73,40,90,9.95,MN,1627382480
sibu,2.3,111.8167,88.11,74,40,0.0,MY,1627382480
gazanjyk,39.2446,55.5154,107.06,13,0,11.79,TM,1627382480
sura,53.8879,45.7419,76.71,47,34,9.44,RU,1627382481
sembe,1.6481,14.5806,84.74,52,83,5.14,CG,1627382481
guadalajara,20.6667,-103.3333,61.77,96,75,3.0,MX,1627382423
abalak,58.1286,68.5944,63.37,65,75,7.29,RU,1627382481
hoyanger,61.2204,6.0749,73.27,84,100,6.33,NO,1627382481
praxedis guerrero,31.3667,-106.0167,79.81,57,50,2.28,MX,1627382482
